[
  {
    "id": 145,
    "name": "Subic Beach",
    "imageUrl": "https://raw.githubusercontent.com/markadriandave17/villanueva/master/subic-beach.jpg",
    "price": 266,
    "priceCurrency": "km",
    "lat": 12.542059, 
    "lng": 124.104882
  },
  {
    "id": 145,
    "name": "El Nido, Palawan",
    "imageUrl": "https://raw.githubusercontent.com/markadriandave17/villanueva/master/el.jpg",
    "price": 900,
    "priceCurrency": "km",
    "lat": 12.542059, 
    "lng": 124.104882
  },
   {
    "id": 145,
    "name": "Mayon Volcano, Albay",
    "imageUrl": "https://raw.githubusercontent.com/markadriandave17/villanueva/master/mayon.jpg",
    "price": 755,
    "priceCurrency": "km",
    "lat": 12.542059, 
    "lng": 124.104882
  },
  {
    "id": 145,
    "name": "Baras, Rizal",
    "imageUrl": "https://raw.githubusercontent.com/markadriandave17/villanueva/master/rizal.jpg",
    "price": 318,
    "priceCurrency": "km",
    "lat": 12.542059, 
    "lng": 124.104882
  },
  {
    "id": 148,
    "name": "Vigan City",
    "imageUrl": "https://raw.githubusercontent.com/markadriandave17/villanueva/master/calle-crisologo-vigan.jpg",
    "price": 125,
    "priceCurrency": "km",
    "lat": 17.570315, 
    "lng": 120.387287
  },
  {
    "id": 201,
    "name": " Intramuros, Manila",
    "imageUrl": "https://raw.githubusercontent.com/markadriandave17/villanueva/master/Intramuros-Manila.jpg",
    "price": 283,
    "priceCurrency": "km",
    "lat": 9.848949,
    "lng": 126.047131
  },
  {
    "id": 205,
    "name": " Taal Volcano and Tagaytay, Batangas and Cavite",
    "imageUrl": "https://raw.githubusercontent.com/markadriandave17/villanueva/master/taal.jpg",
    "price": 352,
    "priceCurrency": "km",
    "lat": 8.458871, 
    "lng": 126.354663
  },
  {
    "id": 210,
    "name": "Banaue, Ifugao",
    "imageUrl": "https://raw.githubusercontent.com/markadriandave17/villanueva/master/banaue_rice_terraces.jpg",
    "price": 372,
    "priceCurrency": "km",
    "lat": 11.930563,
    "lng": 125.034406
  },
  {
    "id": 210,
    "name": "Boracay,Aklan",
    "imageUrl": "https://raw.githubusercontent.com/markadriandave17/villanueva/master/boracay.jpg",
    "price": 725,
    "priceCurrency": "km",
    "lat": 11.930563,
    "lng": 125.034406
  },
  {
    "id": 210,
    "name": "Chocolate Hills, Bohol",
    "imageUrl": "https://raw.githubusercontent.com/markadriandave17/villanueva/master/Chocolate_Hills.jpg",
    "price": 1209,
    "priceCurrency": "km",
    "lat": 11.930563,
    "lng": 125.034406
  },
  {
    "id": 211,
    "name": "Home",
    "imageUrl": "https://raw.githubusercontent.com/markadriandave17/villanueva/master/12.png",
    "price": 0,
    "priceCurrency": "km",
    "lat": 16.720584,
    "lng": 120.357637
  }
]
