[
  {
    "id": 145,
    "name": "Subic Beach “Pink Beach”",
    "imageUrl": "https://raw.githubusercontent.com/markadriandave17/villanueva/master/subic-beach.jpg",
    "price": 0,
    "priceCurrency": "₱",
    "lat": 12.542059, 
    "lng": 124.104882
  },
  {
    "id": 148,
    "name": "Kalanggaman Island, Leyte",
    "imageUrl": "https://raw.githubusercontent.com/markadriandave17/villanueva/master/kalanggaman-island.jpg",
    "price": 0,
    "priceCurrency": "₱",
    "lat": 11.114559,
    "lng": 124.249974
  },
  {
    "id": 201,
    "name": "Siargao Island, Surigao del Norte",
    "imageUrl": "https://raw.githubusercontent.com/markadriandave17/villanueva/master/siargao.jpg",
    "price": 0,
    "priceCurrency": "₱",
    "lat": 9.848949,
    "lng": 126.047131
  },
  {
    "id": 205,
    "name": " Hinatuan Enchanted River, Surigao Del Sur",
    "imageUrl": "https://raw.githubusercontent.com/markadriandave17/villanueva/master/Hinatuan-Enchanted-River.jpg",
    "price": 0,
    "priceCurrency": "₱",
    "lat": 8.458871, 
    "lng": 126.354663
  },
  {
    "id": 210,
    "name": "Langun Gobingob Caves, Samar",
    "imageUrl": "https://raw.githubusercontent.com/markadriandave17/villanueva/master/Calbiga-caves.jpg",
    "price": 0,
    "priceCurrency": "₱",
    "lat": 11.930563,
    "lng": 125.034406
  },
  {
    "id": 211,
    "name": "Home",
    "imageUrl": "https://raw.githubusercontent.com/markadriandave17/villanueva/master/12.png",
    "price": 0,
    "priceCurrency": "₱",
    "lat": 16.720584,
    "lng": 120.357637
  }
]
