[
  {
    "id": 145,
    "name": "Tangadan Falls",
    "imageUrl": "https://raw.githubusercontent.com/markadriandave17/villanueva/master/6.jpg",
    "price": 0,
    "priceCurrency": "₱",
    "lat": 16.643341,
    "lng": 120.448812
  },
  {
    "id": 148,
    "name": "Kamay Na Bato",
    "imageUrl": "https://raw.githubusercontent.com/markadriandave17/villanueva/master/7.jpg",
    "price": 0,
    "priceCurrency": "₱",
    "lat": 16.847160,
    "lng": 120.351695
  },
  {
    "id": 201,
    "name": "Lighthouse",
    "imageUrl": "https://raw.githubusercontent.com/markadriandave17/villanueva/master/8.jpg",
    "price": 0,
    "priceCurrency": "₱",
    "lat": 16.614786,
    "lng": 120.280399
  },
  {
    "id": 205,
    "name": "Baluarte Watch Tower",
    "imageUrl": "https://raw.githubusercontent.com/markadriandave17/villanueva/master/9.jpg",
    "price": 0,
    "priceCurrency": "₱",
    "lat": 16.856757,
    "lng": 120.372851
  },
  {
    "id": 210,
    "name": "San Juan, La Union",
    "imageUrl": "https://raw.githubusercontent.com/markadriandave17/villanueva/master/13.jpg",
    "price": 150,
    "priceCurrency": "₱",
    "lat": 16.657249,
    "lng": 120.321690
  },
  {
    "id": 211,
    "name": "Home",
    "imageUrl": "https://raw.githubusercontent.com/Francisjoshua0502/Juswaw/master/12.png",
    "price": 0,
    "priceCurrency": "₱",
    "lat": 16.720584,
    "lng": 120.357637
  }
]
