[
  {
    "id": 145,
    "name": "Baluarte Watch Tower",
    "imageUrl": "https://raw.githubusercontent.com/Francisjoshua0502/Juswaw/master/1.jpg",
    "price": 0,
    "priceCurrency": "₱",
    "lat": 16.856798,
    "lng": 120.372840
  },
  {
    "id": 148,
    "name": "Tangadan Falls",
    "imageUrl": "https://raw.githubusercontent.com/Francisjoshua0502/Juswaw/master/2.jpg",
    "price": 0,
    "priceCurrency": "₱",
    "lat": 16.643331,
    "lng": 120.448759
  },
  {
    "id": 201,
    "name": "Lighthouse",
    "imageUrl": "https://raw.githubusercontent.com/Francisjoshua0502/Juswaw/master/3.jpg",
    "price": 0,
    "priceCurrency": "₱",
    "lat": 16.614786,
    "lng": 120.280399
  },
  {
    "id": 205,
    "name": "Grapes Farm",
    "imageUrl": "https://raw.githubusercontent.com/Francisjoshua0502/Juswaw/master/4.JPG",
    "price": 0,
    "priceCurrency": "₱",
    "lat": 16.461045,
    "lng": 120.333926
  },
  {
    "id": 210,
    "name": "PUGAD, Pugo Adventure",
    "imageUrl": "https://raw.githubusercontent.com/Francisjoshua0502/Juswaw/master/5.jpg",
    "price": 150,
    "priceCurrency": "₱",
    "lat": 16.336665,
    "lng": 120.478869
  },
  {
    "id": 211,
    "name": "Home",
    "imageUrl": "https://raw.githubusercontent.com/Francisjoshua0502/Juswaw/master/11.png",
    "price": 0,
    "priceCurrency": "₱",
    "lat": 16.847389,
    "lng": 120.371696
  }
]
